{"type":"FeatureCollection","features":[{"type":"Feature","properties":{"name":"LAX Airport","activity":"Transportation","rating":3},"geometry":{"coordinates":[-118.41120262243486,33.94274021392316],"type":"Point"},"id":0},{"type":"Feature","properties":{"name":"Santa Monica Pier","activity":"Beach Walk","rating":4},"geometry":{"coordinates":[-118.49715880512008,34.00919135896547],"type":"Point"},"id":1},{"type":"Feature","properties":{"name":"Universal Studios","activity":"Adventure Park","rating":5},"geometry":{"coordinates":[-118.35145200000014,34.13616584180174],"type":"Point"},"id":2},{"type":"Feature","properties":{"name":"SoFi Stadium","activity":"Blackpink Concert","rating":5},"geometry":{"coordinates":[-118.33874091761538,33.95326338945107],"type":"Point"},"id":3},{"type":"Feature","properties":{"name":"Phuoc Loc Tho","activity":"Food + Fair","rating":3},"geometry":{"coordinates":[-117.96864527116341,33.74339524685311],"type":"Point"},"id":4},{"type":"Feature","properties":{"name":"Nam Kitchen","activity":"Food","rating":5},"geometry":{"coordinates":[-118.30359010185252,33.87249973016081],"type":"Point"},"id":5},{"type":"Feature","properties":{"name":"Best Western Plus South Bay Hotel","activity":"Hotel Stay","rating":3.5},"geometry":{"coordinates":[-118.35187254232734,33.89534126388301],"type":"Point"},"id":6},{"type":"Feature","properties":{"name":"Gardena Bowl","activity":"Billiards","rating":3},"geometry":{"coordinates":[-118.29218327116392,33.88815354684829],"type":"Point"},"id":7},{"type":"Feature","properties":{"name":"Beverly Hills Center","activity":"Shopping","rating":5},"geometry":{"coordinates":[-118.37752952513048,34.07521448245974],"type":"Point"},"id":8},{"type":"Feature","properties":{"name":"Santa Monica Place","activity":"Shopping","rating":4},"geometry":{"coordinates":[-118.49378692593072,34.013623994865114],"type":"Point"},"id":9},{"type":"Feature","properties":{"name":" Apple Third Street Promenade","activity":"Shopping","rating":5},"geometry":{"coordinates":[-118.495212948043,34.015447312742225],"type":"Point"},"id":10},{"type":"Feature","properties":{"name":"Beverly Hills Open Outlet Street","activity":"Shopping","rating":4},"geometry":{"coordinates":[-118.40190089167208,34.06989823434222],"type":"Point"},"id":11}]}